,City Name,Latitude,Longitude,Temperature (Farenheit),Humidity %,Cloudiness %,Wind Speed (MPH),Country,Date
0,Tuatapere,-46.13,167.68,54.0,62,99,13.0,NZ,1600696822
1,Correntina,-13.34,-44.64,95.38,23,53,6.44,BR,1600696822
2,Jinchang,38.5,102.17,56.68,77,100,12.48,CN,1600696822
3,Upernavik,72.79,-56.15,28.96,93,100,6.06,GL,1600696823
4,Vaini,-21.2,-175.2,71.6,83,75,9.17,TO,1600696823
5,Quatre Cocos,-20.21,57.76,74.05,64,40,18.34,MU,1600696823
6,Bluff,-46.6,168.33,54.0,62,100,13.0,NZ,1600696824
7,Waitati,-45.75,170.57,47.75,90,0,1.99,NZ,1600696824
8,Mar del Plata,-38.0,-57.56,48.42,61,75,8.05,AR,1600696824
9,Olafsvik,64.89,-23.71,42.66,73,98,25.7,IS,1600696825
10,Bengkulu,-3.8,102.27,75.16,94,100,2.73,ID,1600696825
11,Atuona,-9.8,-139.03,78.67,71,6,21.21,PF,1600696649
12,Barrow,71.29,-156.79,32.7,97,100,18.32,US,1600696825
13,Ushuaia,-54.8,-68.3,41.0,80,75,5.7,AR,1600696826
14,Thompson,55.74,-97.86,53.6,100,75,3.36,CA,1600696807
15,Yellowknife,62.46,-114.35,37.4,100,90,9.17,CA,1600696566
16,Shambu,9.57,37.1,61.41,98,30,0.58,ET,1600696826
17,Arman',59.7,150.17,37.17,74,0,5.79,RU,1600696827
18,Avarua,-21.21,-159.78,73.4,94,43,2.24,CK,1600696827
19,Saint-Philippe,-21.36,55.77,70.11,53,9,5.82,RE,1600696827
20,Cape Town,-33.93,18.42,64.11,48,0,13.87,ZA,1600696820
21,Zharkent,44.16,80.0,65.03,33,0,4.03,KZ,1600696827
22,Baykit,61.67,96.37,44.01,85,9,3.53,RU,1600696828
23,Tabuk,17.42,121.44,76.1,88,7,3.24,PH,1600696673
24,Punta Arenas,-53.15,-70.92,41.0,93,75,2.24,CL,1600696577
25,Esperance,-33.87,121.9,48.2,93,40,6.93,AU,1600696828
26,Hithadhoo,-0.6,73.08,82.29,76,100,15.1,MV,1600696765
27,Chokurdakh,70.63,147.92,38.5,86,0,8.93,RU,1600696829
28,Kattivākkam,13.22,80.32,86.0,66,75,4.7,IN,1600696829
29,George Town,5.41,100.34,85.14,74,20,4.7,MY,1600696829
30,Benjamín Aceval,-24.97,-57.57,69.8,43,22,16.11,PY,1600696830
31,Busselton,-33.65,115.33,53.64,97,50,1.01,AU,1600696830
32,East London,-33.02,27.91,64.4,55,0,24.16,ZA,1600696830
33,Senanga,-16.12,23.27,101.48,8,0,10.65,ZM,1600696830
34,Hobart,-42.88,147.33,49.1,76,75,4.7,AU,1600696813
35,Faanui,-16.48,-151.75,78.03,76,44,20.67,PF,1600696831
36,Pevek,69.7,170.31,36.55,85,72,11.12,RU,1600696831
37,Yenagoa,4.92,6.26,77.34,88,100,6.2,NG,1600696831
38,Nikolskoye,59.7,30.79,57.97,62,40,11.18,RU,1600696831
39,Sarangani,5.4,125.46,84.87,71,92,6.67,PH,1600696832
40,Prudentópolis,-25.21,-50.98,74.73,48,56,2.33,BR,1600696832
41,Alofi,-19.06,-169.92,71.6,94,90,6.93,NU,1600696767
42,Colesberg,-30.72,25.1,59.14,29,0,20.47,ZA,1600696832
43,Turukhansk,65.82,87.98,50.58,83,83,16.96,RU,1600696832
44,Thunder Bay,48.4,-89.32,58.06,67,40,5.82,CA,1600696742
45,Kokuy,52.2,117.55,43.56,84,15,2.68,RU,1600696833
46,Rikitea,-23.12,-134.97,72.16,73,38,21.77,PF,1600696833
47,Kapaa,22.08,-159.32,72.95,78,75,9.17,US,1600696833
48,Moindou,-21.69,165.68,64.4,77,2,5.82,NC,1600696834
49,Santa Helena de Goiás,-17.81,-50.6,90.32,30,95,9.26,BR,1600696834
50,Ahipara,-35.17,173.17,51.67,90,8,5.01,NZ,1600696834
51,Saint Paul Harbor,57.79,-152.41,51.8,76,90,20.8,US,1600696834
52,Sarakhs,36.54,61.16,78.8,29,0,20.8,IR,1600696835
53,Yumen,40.28,97.2,53.02,70,0,9.37,CN,1600696835
54,Husavik,66.04,-17.34,37.4,78,90,4.7,IS,1600696835
55,Lesosibirsk,58.24,92.48,54.41,83,74,11.01,RU,1600696835
56,Jalu,29.03,21.55,90.03,25,0,13.44,LY,1600696836
57,Belyy Yar,53.6,91.39,53.6,81,2,2.24,RU,1600696836
58,Saskylakh,71.92,114.08,43.54,79,21,8.41,RU,1600696837
59,Hermanus,-34.42,19.23,66.99,46,0,13.29,ZA,1600696837
60,Saldanha,-33.01,17.94,69.8,35,0,3.36,ZA,1600696837
61,New Norfolk,-42.78,147.06,47.16,64,90,1.01,AU,1600696837
62,Livingston,55.9,-3.52,60.71,67,40,21.92,GB,1600696838
63,Carnarvon,-24.87,113.63,64.4,68,0,17.22,AU,1600696838
64,Jamestown,42.1,-79.24,48.47,70,1,6.93,US,1600696754
65,Mataura,-46.19,168.86,54.0,62,50,13.0,NZ,1600696838
66,Laas,46.62,10.7,65.46,72,75,6.93,IT,1600696838
67,Saint George,37.1,-113.58,65.03,29,1,3.36,US,1600696561
68,Havre-St-Pierre,50.23,-63.6,46.4,61,1,11.41,CA,1600696839
69,Butaritari,3.07,172.79,82.22,78,19,14.29,KI,1600696839
70,Kahului,20.89,-156.47,74.26,65,75,12.75,US,1600696699
71,Forbes,-33.38,148.02,64.0,93,26,6.42,AU,1600696840
72,Northam,51.03,-4.22,70.74,62,0,1.01,GB,1600696840
73,Fenoarivo,-18.93,47.44,73.4,46,20,5.82,MG,1600696840
74,Tonj,7.27,28.68,82.63,80,40,3.33,SS,1600696841
75,Honningsvåg,70.98,25.97,42.8,81,75,18.34,NO,1600696841
76,Lubao,14.92,120.55,83.3,74,75,4.7,PH,1600696841
77,Umeå,63.83,20.26,51.8,87,100,10.29,SE,1600696841
78,Qaanaaq,77.48,-69.36,16.75,85,17,5.7,GL,1600696842
79,Mzimba,-11.9,33.6,79.23,29,0,13.18,MW,1600696842
80,Namli,23.43,75.05,80.69,59,0,4.21,IN,1600696842
81,Yar-Sale,66.83,70.83,49.5,82,49,10.16,RU,1600696842
82,Comodoro Rivadavia,-45.87,-67.5,55.4,40,100,13.87,AR,1600696843
83,Plasnica,41.47,21.12,76.21,44,20,3.36,MK,1600696843
84,Pampa,35.54,-100.96,54.91,76,1,11.41,US,1600696762
85,Port Alfred,-33.59,26.89,62.89,56,2,20.54,ZA,1600696843
86,Béjar,40.39,-5.76,75.0,47,0,3.0,ES,1600696843
87,Grindavik,63.84,-22.43,41.0,86,75,23.04,IS,1600696844
88,Fukuechō,32.69,128.84,72.41,75,70,21.77,JP,1600696844
89,Bredasdorp,-34.53,20.04,64.4,39,0,9.17,ZA,1600696844
90,Kulhudhuffushi,6.62,73.07,82.56,78,100,17.18,MV,1600696844
91,Hilo,19.73,-155.09,64.35,64,90,9.17,US,1600696845
92,Ţahţā,26.77,31.5,100.49,16,0,17.22,EG,1600696845
93,Narsaq,60.92,-46.05,35.6,74,75,3.36,GL,1600696845
94,Shirokiy,49.76,129.52,47.77,89,80,2.98,RU,1600696845
95,São Domingos,-13.4,-46.32,95.49,20,99,8.55,BR,1600696846
96,Fairbanks,64.84,-147.72,32.99,90,75,2.95,US,1600696835
97,Tabou,4.42,-7.35,78.48,83,75,13.06,CI,1600696846
98,Tasiilaq,65.61,-37.64,32.0,92,100,8.05,GL,1600696846
99,Vicksburg,32.35,-90.88,70.68,73,90,5.82,US,1600696683
100,Kisangani,0.52,25.2,73.4,88,75,3.36,CD,1600696847
101,Yaan,7.38,8.57,84.69,65,57,1.36,NG,1600696847
102,Kalabagh,32.97,71.56,94.77,18,0,2.86,PK,1600696847
103,Maniitsoq,65.42,-52.9,32.97,91,99,10.54,GL,1600696847
104,Tuktoyaktuk,69.45,-133.04,35.6,92,90,10.29,CA,1600696847
105,Half Moon Bay,37.46,-122.43,55.78,100,90,4.7,US,1600696838
106,Srednekolymsk,67.45,153.68,32.45,89,1,6.87,RU,1600696848
107,Porto Santo,33.07,-16.34,75.2,69,40,8.05,PT,1600696848
108,Aloleng,16.13,119.78,83.39,73,60,2.04,PH,1600696848
109,Ixtapa,20.7,-105.2,78.01,94,75,3.36,MX,1600696849
110,Gimbi,9.17,35.83,67.46,97,13,3.51,ET,1600696849
111,San Cristobal,7.77,-72.22,78.8,78,20,2.24,VE,1600696695
112,Airai,-8.93,125.41,61.03,100,100,2.33,TL,1600696849
113,Taguisa,6.7,124.04,80.29,79,100,5.12,PH,1600696850
114,Severodvinsk,64.56,39.83,48.2,76,40,4.47,RU,1600696850
115,Nabisar,25.07,69.64,100.8,29,94,7.02,PK,1600696850
116,Albany,42.6,-73.97,48.9,53,0,3.31,US,1600696730
117,Wundanyi,-3.4,38.36,72.82,53,15,16.35,KE,1600696850
118,Samarai,-10.62,150.67,78.4,87,91,13.11,PG,1600696851
119,Mount Isa,-20.73,139.5,75.2,73,75,4.7,AU,1600696824
120,Ambilobe,-13.2,49.05,82.02,57,95,1.79,MG,1600696851
121,La Asuncion,11.03,-63.86,84.2,79,44,5.82,VE,1600696851
122,Stilling,56.06,9.99,63.0,72,80,1.99,DK,1600696851
123,Dikson,73.51,80.55,45.68,92,92,20.54,RU,1600696852
124,Leningradskaya,46.32,39.39,73.36,20,0,8.41,RU,1600696852
125,Asău,46.43,26.4,72.0,44,0,6.96,RO,1600696852
126,Sibolga,1.74,98.78,80.96,78,100,1.25,ID,1600696736
127,Menongue,-14.66,17.69,95.56,13,81,3.24,AO,1600696852
128,Nanortalik,60.14,-45.24,38.52,83,67,6.8,GL,1600696853
129,Port Elizabeth,-33.92,25.57,64.4,48,20,21.92,ZA,1600696763
130,Awjilah,29.11,21.29,89.46,26,0,13.02,LY,1600696853
131,Xingtai,37.06,114.49,71.51,45,90,6.49,CN,1600696700
132,Pirenópolis,-15.85,-48.96,77.0,44,17,6.93,BR,1600696853
133,São João da Barra,-21.64,-41.05,75.2,78,53,6.93,BR,1600696853
134,Zhigansk,66.77,123.37,41.54,75,20,2.57,RU,1600696854
135,Great Yarmouth,52.61,1.73,71.29,64,0,5.99,GB,1600696854
136,Soe,-9.86,124.28,66.88,97,100,3.91,ID,1600696854
137,Tcholliré,8.4,14.17,79.97,74,55,4.0,CM,1600696854
138,Kérouané,9.27,-9.02,83.64,67,75,2.26,GN,1600696855
139,Aswān,24.09,32.91,109.33,12,13,3.15,EG,1600696610
140,Kavieng,-2.57,150.8,82.65,78,23,12.84,PG,1600696855
141,Pahrump,36.21,-115.98,65.8,37,0,1.01,US,1600696719
142,Alugan,12.22,125.48,80.91,86,100,7.05,PH,1600696855
143,Promyshlennovskiy,55.48,86.2,60.8,48,40,4.47,RU,1600696855
144,Mishkino,55.34,63.92,39.34,83,100,12.24,RU,1600696856
145,Cabo San Lucas,22.89,-109.91,78.04,84,6,3.0,MX,1600696641
146,Chara,56.91,118.26,46.8,70,100,2.84,RU,1600696856
147,Nemuro,43.32,145.57,61.99,84,22,7.9,JP,1600696856
148,Santa Marta,11.24,-74.2,85.17,66,99,5.53,CO,1600696778
149,Tierralta,8.17,-76.06,82.89,74,100,1.97,CO,1600696857
150,Seoul,37.57,126.98,61.5,67,1,1.72,KR,1600696616
151,Klaksvík,62.23,-6.59,50.0,71,100,13.87,FO,1600696857
152,Atbasar,51.8,68.33,48.7,64,100,11.72,KZ,1600696857
153,Chimbote,-9.09,-78.58,64.09,81,99,6.78,PE,1600696858
154,Sur,22.57,59.53,87.42,45,86,3.6,OM,1600696858
155,Cockburn Town,21.46,-71.14,83.23,71,0,11.83,TC,1600696814
156,Bahía Honda,22.9,-83.16,83.03,75,7,3.89,CU,1600696858
157,Lorengau,-2.02,147.27,82.22,78,24,6.62,PG,1600696859
158,Gijang,35.24,129.21,66.2,68,40,6.93,KR,1600696859
159,Mangaratiba,-22.96,-44.04,75.2,83,75,3.36,BR,1600696859
160,Kruisfontein,-34.0,24.73,64.99,44,0,10.0,ZA,1600696859
161,Bethel,41.37,-73.41,49.12,81,1,8.5,US,1600696860
162,Saint-Augustin,51.23,-58.65,52.12,55,0,11.16,CA,1600696860
163,Buluang,13.31,123.34,78.4,88,96,2.84,PH,1600696860
164,Adrar,20.5,-10.07,99.72,22,0,7.81,MR,1600696860
165,Puerto Colombia,10.99,-74.95,82.4,88,20,8.72,CO,1600696861
166,Ostrovnoy,68.05,39.51,45.84,72,50,8.03,RU,1600696861
167,Beyneu,45.32,55.2,60.1,32,0,9.78,KZ,1600696862
168,Atasū,48.68,71.64,48.87,50,53,8.75,KZ,1600696862
169,Lydenburg,-25.1,30.46,72.0,62,89,5.01,ZA,1600696863
170,Saint Anthony,45.02,-93.22,61.29,63,1,12.75,US,1600696812
171,Te Anau,-45.42,167.72,44.91,84,80,7.31,NZ,1600696863
172,São Filipe,14.9,-24.5,80.08,79,100,2.75,CV,1600696863
173,Hamilton,39.18,-84.53,56.25,66,1,8.05,US,1600696677
174,Marawi,8.0,124.29,75.0,94,100,5.01,PH,1600696864
175,Biała Podlaska,52.03,23.12,71.6,33,1,6.71,PL,1600696864
176,Norman Wells,65.28,-126.83,28.4,92,75,3.27,CA,1600696865
177,Pamekasan,-7.16,113.47,82.08,74,100,6.69,ID,1600696865
178,Castro,-24.79,-50.01,64.53,70,99,8.86,BR,1600696865
179,Abéché,13.83,20.83,91.4,30,20,6.49,TD,1600696865
180,Salym,60.06,71.48,46.27,69,93,11.88,RU,1600696866
181,Lagoa,39.05,-27.98,68.27,80,43,15.26,PT,1600696866
182,Mahébourg,-20.41,57.7,75.2,64,40,18.34,MU,1600696866
183,Del Pilar,15.03,120.7,84.2,74,75,4.7,PH,1600696866
184,Torbay,47.67,-52.73,52.68,50,40,11.41,CA,1600696867
185,Trincomalee,8.57,81.23,83.41,69,100,12.95,LK,1600696867
186,Kysyl-Syr,63.9,122.76,44.87,79,0,2.53,RU,1600696867
187,Aksha,50.28,113.29,41.74,82,29,4.36,RU,1600696867
188,Puerto Ayora,-0.74,-90.35,66.85,87,100,9.13,EC,1600696868
189,Abengourou,6.73,-3.5,86.36,64,38,4.09,CI,1600696868
190,Ubari,26.59,12.78,94.15,16,0,11.79,LY,1600696868
191,Brae,60.4,-1.35,53.6,93,75,25.28,GB,1600696868
192,Dowa,-13.65,33.94,82.4,28,20,5.82,MW,1600696869
193,Prince Rupert,54.32,-130.32,48.2,100,1,4.7,CA,1600696846
194,General Pico,-35.66,-63.76,60.48,34,0,12.46,AR,1600696869
195,Puerto Maldonado,-12.6,-69.18,69.8,83,90,5.82,PE,1600696869
196,Kemijärvi,66.71,27.43,50.54,89,100,18.59,FI,1600696869
197,Ponta do Sol,32.67,-17.1,71.62,65,20,6.93,PT,1600696870
198,Samsun Province,41.25,36.33,71.6,68,75,5.82,TR,1600696726
199,Moen,69.13,18.61,50.0,66,40,13.87,NO,1600696870
200,Yangi Marg`ilon,40.43,71.72,78.8,19,0,4.7,UZ,1600696870
201,Santa Rosa,14.31,121.11,85.48,70,20,6.93,PH,1600696870
202,Coquimbo,-29.95,-71.34,55.4,76,20,5.82,CL,1600696802
203,Kaeo,-35.1,173.78,53.01,93,27,3.96,NZ,1600696871
204,Dhārchula,29.85,80.53,69.69,69,3,3.53,IN,1600696871
205,Padilla,3.22,-76.31,77.0,78,40,2.8,CO,1600696871
206,Haines Junction,60.75,-137.51,34.38,89,2,2.77,CA,1600696871
207,Newport,51.59,-3.0,74.21,62,0,1.01,GB,1600696622
208,Praia,14.92,-23.51,86.0,70,40,12.75,CV,1600696872
209,Laguna,38.42,-121.42,59.05,67,1,4.7,US,1600696872
210,Makubetsu,45.37,141.82,57.87,90,70,13.15,JP,1600696872
211,Esim,4.87,-2.24,78.75,79,39,13.04,GH,1600696873
212,Ilulissat,69.22,-51.1,28.4,92,75,2.24,GL,1600696873
213,Walvis Bay,-22.96,14.51,63.95,49,35,8.05,NA,1600696873
214,Lavrentiya,65.58,-171.0,35.58,85,37,10.18,RU,1600696873
215,Imbituba,-28.24,-48.67,60.8,38,0,10.29,BR,1600696873
216,Geraldton,-28.77,114.6,50.0,81,0,5.82,AU,1600696874
217,Kaitangata,-46.28,169.85,48.0,63,6,7.0,NZ,1600696874
218,Iqaluit,63.75,-68.51,33.4,95,90,3.36,CA,1600696772
219,Tiksi,71.69,128.87,44.76,77,84,12.12,RU,1600696874
220,Iwanai,42.97,140.51,57.31,82,42,1.3,JP,1600696875
221,Tambo,-14.8,-73.92,47.28,52,61,4.94,PE,1600696875
222,Philadelphia,39.95,-75.16,56.05,54,20,10.29,US,1600696674
223,Korla,41.76,86.15,67.42,29,0,2.98,CN,1600696875
224,Darhan,49.49,105.92,50.43,63,0,1.95,MN,1600696875
225,Namatanai,-3.67,152.43,79.38,79,0,7.18,PG,1600696876
226,Ribeira Grande,38.52,-28.7,73.4,64,20,17.22,PT,1600696876
227,Hasaki,35.73,140.83,65.66,94,75,6.93,JP,1600696876
228,Pucallpa,-8.38,-74.55,80.6,78,20,2.24,PE,1600696690
229,Cabedelo,-6.98,-34.83,80.6,78,75,12.75,BR,1600696834
230,Neresnytsya,48.12,23.77,78.8,31,0,3.36,UA,1600696877
231,Sungai Penuh,-2.08,101.38,66.54,88,100,5.91,ID,1600696877
232,Pakokku,21.33,95.1,82.08,77,87,14.65,MM,1600696877
233,Lebu,-37.62,-73.65,52.68,79,100,11.39,CL,1600696877
234,Longyearbyen,78.22,15.64,39.2,64,75,23.04,SJ,1600696878
235,Champerico,14.3,-91.92,70.81,94,40,4.34,GT,1600696878
236,Sebezh,56.3,28.47,62.64,65,100,8.99,RU,1600696878
237,Palekastro,35.2,26.25,80.01,58,0,20.0,GR,1600696878
238,Mandalgovi,45.76,106.27,47.3,51,0,5.21,MN,1600696878
239,Katsuura,35.13,140.3,71.17,78,40,6.93,JP,1600696879
240,Mubi,10.27,13.26,80.92,69,72,6.51,NG,1600696879
241,Contai,21.78,87.75,83.03,87,100,12.93,IN,1600696879
242,Vinh,18.67,105.67,80.78,83,98,1.36,VN,1600696879
243,Kalanguy,51.02,116.52,39.63,84,0,1.66,RU,1600696879
244,San Felipe,10.34,-68.74,84.51,56,49,3.78,VE,1600696880
245,Hualmay,-11.1,-77.61,63.97,78,94,8.34,PE,1600696880
246,Padang,-0.95,100.35,80.42,66,100,6.8,ID,1600696880
247,Gejiu,23.31,103.16,58.95,100,89,2.84,CN,1600696880
248,Troitskoye,52.98,84.68,59.92,62,0,7.47,RU,1600696881
249,Guararapes,-21.26,-50.64,81.28,45,17,9.91,BR,1600696771
250,Arraial do Cabo,-22.97,-42.03,76.23,73,85,13.87,BR,1600696806
251,Broome,42.25,-75.83,45.7,86,1,4.7,US,1600696881
252,Gaoyou,32.79,119.43,70.0,85,100,7.65,CN,1600696881
253,Dunda,-8.12,34.25,92.64,17,36,7.25,TZ,1600696881
254,Krasnyy Chikoy,50.36,108.75,46.0,87,100,1.48,RU,1600696882
255,Cherskiy,68.75,161.3,30.7,94,0,8.37,RU,1600696882
256,Shache,38.42,77.24,67.01,25,0,10.27,CN,1600696882
257,Kachīry,53.07,76.1,54.7,44,100,12.97,KZ,1600696882
258,Guangzhou,23.12,113.25,86.65,36,98,11.72,CN,1600696805
259,Leh,34.17,77.58,58.06,24,0,3.69,IN,1600696883
260,Amapá,1.0,-52.0,91.36,43,0,4.97,BR,1600696883
261,Savannah Bight,16.45,-85.85,84.04,70,68,7.05,HN,1600696883
262,Suárez,2.95,-76.7,77.68,61,96,1.16,CO,1600696883
263,Zhuhai,22.28,113.57,82.06,88,20,11.41,CN,1600696884
264,Provideniya,64.38,-173.3,35.6,84,68,9.08,RU,1600696884
265,Inírida,3.87,-67.92,84.45,64,74,2.46,CO,1600696884
266,Areosa,41.72,-8.86,69.93,83,20,9.17,PT,1600696884
267,Siniscola,40.57,9.69,77.0,73,40,5.82,IT,1600696885
268,Salé,34.04,-6.82,78.24,61,100,10.29,MA,1600696885
269,Acaraú,-2.89,-40.12,82.17,65,100,17.27,BR,1600696885
270,Tautira,-17.73,-149.15,74.12,69,20,4.7,PF,1600696885
271,Khatanga,71.97,102.5,44.94,73,100,8.66,RU,1600696885
272,Belaya Gora,68.53,146.42,36.86,78,0,7.47,RU,1600696886
273,Carutapera,-1.2,-46.02,83.41,70,100,9.08,BR,1600696886
274,Filingué,14.35,3.32,96.6,34,0,6.51,NE,1600696886
275,Luba,3.46,8.55,77.0,100,75,6.93,GQ,1600696886
276,Icod de los Vinos,28.37,-16.71,79.18,82,0,7.0,ES,1600696886
277,Yerbogachën,61.28,108.01,39.16,87,0,0.78,RU,1600696887
278,Mount Gambier,-37.83,140.77,50.0,93,40,11.41,AU,1600696887
279,Codrington,-38.27,141.97,49.69,85,6,13.89,AU,1600696887
280,Mednogorsk,51.41,57.59,43.45,69,86,13.49,RU,1600696887
281,Zhetysay,40.73,68.3,66.7,32,100,6.4,KZ,1600696888
282,Nishihara,26.18,127.76,77.97,88,40,5.82,JP,1600696888
283,Leningradskiy,69.38,178.42,35.08,87,84,13.49,RU,1600696888
284,Biak,-0.91,122.88,78.03,80,6,5.61,ID,1600696888
285,Mitsamiouli,-11.38,43.28,78.76,64,6,2.91,KM,1600696888
286,Meadow Lake,34.8,-106.54,55.69,50,1,6.71,US,1600696889
287,Makakilo City,21.35,-158.09,74.32,73,1,4.7,US,1600696889
288,Kvitok,56.07,98.48,47.82,90,20,6.89,RU,1600696889
289,Píllaro,-1.17,-78.53,50.34,93,75,6.87,EC,1600696889
290,Kamenka,51.32,42.77,62.01,38,51,12.46,RU,1600696890
291,Khandyga,62.67,135.6,42.94,80,36,1.3,RU,1600696890
292,Dalbandin,28.89,64.41,83.3,12,0,1.1,PK,1600696890
293,Revelstoke,50.98,-118.2,48.2,93,90,2.73,CA,1600696890
294,San Rafael,-34.62,-68.33,63.05,26,0,7.2,AR,1600696685
295,Port Blair,11.67,92.75,81.64,83,100,13.11,IN,1600696890
296,Kamaishi,39.27,141.88,63.52,75,58,5.17,JP,1600696891
297,Ulladulla,-35.35,150.47,63.19,68,75,11.41,AU,1600696891
298,Saint-Pierre,-21.34,55.48,71.35,53,6,5.82,RE,1600696808
299,Fortuna,40.6,-124.16,55.74,93,90,3.02,US,1600696754
300,Meulaboh,4.14,96.13,81.75,80,100,2.04,ID,1600696892
301,San Patricio,19.22,-104.7,79.88,77,0,4.05,MX,1600696892
302,Kununurra,-15.77,128.73,84.2,58,39,8.05,AU,1600696892
303,Magaria,13.0,8.91,91.38,41,100,2.73,NE,1600696892
304,Kindu,-2.95,25.95,79.95,78,97,5.39,CD,1600696893
305,Pangoa,-12.12,-73.0,81.55,58,92,2.44,PE,1600696893
306,Alpena,45.06,-83.43,48.2,87,1,5.82,US,1600696893
307,Buchanan,5.88,-10.05,79.32,84,83,9.66,LR,1600696893
308,Yeppoon,-23.13,150.73,69.8,88,12,3.36,AU,1600696893
309,Góra Kalwaria,51.98,21.22,74.28,44,0,8.05,PL,1600696894
310,Sumenep,-7.02,113.87,82.56,73,99,3.11,ID,1600696894
311,Mălureni,45.1,24.8,75.0,46,43,4.56,RO,1600696894
312,Santa Maria,-29.68,-53.81,60.8,48,0,3.36,BR,1600696894
313,Nantucket,41.28,-70.1,58.06,47,1,19.46,US,1600696894
314,Toora-Khem,52.47,96.11,46.58,70,0,1.12,RU,1600696895
315,Sabang,5.89,95.32,84.13,78,97,11.54,ID,1600696895
316,Havelock,34.88,-76.9,63.77,72,20,16.11,US,1600696895
317,Yulara,-25.24,130.99,59.0,15,0,6.93,AU,1600696895
318,Karratha,-20.74,116.85,69.46,35,0,9.24,AU,1600696896
319,Zadar,44.12,15.24,82.4,42,20,8.05,HR,1600696896
320,Sitka,57.05,-135.33,50.0,87,90,5.28,US,1600696896
321,Port Shepstone,-30.74,30.45,65.28,59,10,26.55,ZA,1600696712
322,Petropavlovsk-Kamchatskiy,53.05,158.65,37.4,100,13,6.71,RU,1600696896
323,Najrān,17.49,44.13,95.0,13,0,11.41,SA,1600696897
324,Chimoré,-16.98,-65.13,82.04,33,44,4.41,BO,1600696758
325,Shimoda,34.67,138.95,64.99,88,100,1.01,JP,1600696897
326,Porto Velho,-8.76,-63.9,77.0,88,20,2.24,BR,1600696830
327,Safford,32.83,-109.71,71.6,26,1,9.17,US,1600696804
328,Aksu,41.12,80.26,65.93,31,0,1.3,CN,1600696898
329,Zhaodong,46.08,125.98,55.4,87,100,2.24,CN,1600696898
330,La Penne-sur-Huveaune,43.28,5.52,79.16,51,20,12.75,FR,1600696898
331,Talnakh,69.49,88.4,50.0,76,74,24.61,RU,1600696899
332,Cayenne,4.93,-52.33,87.8,66,40,6.93,GF,1600696795
333,Richards Bay,-28.78,32.04,65.61,63,100,16.08,ZA,1600696744
334,Ojinaga,29.57,-104.42,61.16,52,1,6.93,MX,1600696899
335,Bambanglipuro,-7.95,110.28,77.34,89,99,7.34,ID,1600696900
336,São Mateus do Sul,-25.87,-50.38,68.92,57,84,2.53,BR,1600696900
337,Ivnya,51.06,36.13,63.57,31,71,8.95,RU,1600696900
338,Tilichiki,60.47,166.1,31.66,96,49,3.69,RU,1600696900
339,Rocha,-34.48,-54.33,49.91,59,83,11.25,UY,1600696901
340,Vao,-22.67,167.48,69.69,77,18,19.28,NC,1600696901
341,Vardø,70.37,31.11,44.6,81,75,27.51,NO,1600696901
342,Kichera,55.94,110.1,40.64,70,0,5.32,RU,1600696902
343,Napier City,-39.48,176.92,48.99,82,0,4.0,NZ,1600696902
344,La Ronge,55.1,-105.28,51.8,93,75,10.29,CA,1600696902
345,Jablah,35.36,35.93,86.0,51,40,4.7,SY,1600696902
346,Labuhan,-6.88,112.21,81.9,74,95,6.31,ID,1600696903
347,Hong Kong,22.29,114.16,79.39,93,100,14.99,HK,1600696784
348,The Valley,18.22,-63.06,86.68,70,20,9.17,AI,1600696903
349,Mehamn,71.04,27.85,42.8,81,75,17.22,NO,1600696904
350,Rio Grande,-32.03,-52.1,55.22,57,0,9.04,BR,1600696606
351,Constitución,-35.33,-72.42,60.96,60,60,2.21,CL,1600696904
352,Mbandaka,0.05,18.26,79.36,84,99,2.13,CD,1600696904
353,Jajce,44.34,17.27,78.8,41,20,4.7,BA,1600696859
354,Barinas,8.62,-70.21,80.49,72,43,3.4,VE,1600696904
355,Garoowe,8.41,48.48,94.68,27,64,15.97,SO,1600696905
356,Waipawa,-41.41,175.52,54.79,82,1,23.04,NZ,1600696905
357,Nosy Varika,-20.58,48.53,73.96,72,10,11.32,MG,1600696906
358,Krasnosel'kup,65.7,82.47,56.14,71,0,25.1,RU,1600696906
359,Montescaglioso,40.55,16.67,83.01,74,40,16.11,IT,1600696906
360,Buenos Aires,-34.61,-58.38,55.81,30,0,3.0,AR,1600696401
361,Homer,59.64,-151.55,46.04,93,90,8.72,US,1600696906
362,Yambio,4.57,28.4,78.62,89,98,4.36,SS,1600696907
363,Morón,-34.65,-58.62,54.61,57,0,5.82,AR,1600696907
364,Hobyo,5.35,48.53,78.71,74,12,28.99,SO,1600696907
365,Tumut,-35.3,148.22,56.46,86,98,2.19,AU,1600696908
366,Abalak,58.13,68.59,42.04,93,100,11.52,RU,1600696908
367,Okha,53.57,142.95,48.34,80,0,9.53,RU,1600696908
368,Bagdarin,54.43,113.6,38.75,89,100,4.54,RU,1600696908
369,Nizwá,22.93,57.53,97.63,9,0,0.18,OM,1600696908
370,Vila Franca do Campo,37.72,-25.43,71.6,73,20,20.8,PT,1600696909
371,Madimba,-10.4,40.33,79.65,61,9,9.66,TZ,1600696909
372,Boyolangu,-8.12,111.89,75.65,89,92,4.34,ID,1600696909
373,Havøysund,71.0,24.66,43.68,81,75,18.34,NO,1600696856
374,Port Lincoln,-34.73,135.87,54.28,67,36,23.89,AU,1600696910
375,Akriní,40.43,21.9,79.0,29,2,6.93,GR,1600696910
376,Uncia,-18.47,-66.57,46.74,49,100,6.35,BO,1600696910
377,Masterton,-40.96,175.66,53.74,91,10,1.99,NZ,1600696910
378,Pedasí,7.53,-80.03,80.73,79,99,9.57,PA,1600696911
379,Urucará,-2.54,-57.76,95.59,43,31,4.47,BR,1600696911
380,Springbok,-29.66,17.89,74.21,17,0,10.85,ZA,1600696911
381,Duku,11.24,4.91,89.26,54,6,4.32,NG,1600696912
382,Merauke,-8.47,140.33,77.68,80,0,16.55,ID,1600696912
383,Bragança,-1.05,-46.77,85.41,64,100,6.33,BR,1600696912
384,Sorochinsk,52.43,53.16,48.09,69,100,10.76,RU,1600696912
385,Kuntaur,13.67,-14.88,82.02,74,96,6.42,GM,1600696913
386,Chui,-33.7,-53.46,52.47,55,2,9.8,UY,1600696913
387,Simao,22.79,100.97,66.88,96,100,2.3,CN,1600696913
388,Faya,18.39,42.45,83.3,12,1,11.41,SA,1600696913
389,Kismayo,-0.36,42.55,79.14,72,53,16.11,SO,1600696914
390,Hofn,64.25,-15.21,46.4,65,40,13.87,IS,1600696914
391,Natal,-5.79,-35.21,82.4,65,75,14.99,BR,1600696708
392,Davila,18.47,120.58,82.31,78,23,10.2,PH,1600696914
393,Townsville,-19.25,146.8,72.77,88,75,4.7,AU,1600696696
394,Mayya,61.73,130.28,35.6,69,66,6.71,RU,1600696915
395,Kieta,-6.22,155.63,79.27,76,98,1.39,PG,1600696823
396,Severo-Yeniseyskiy,60.37,93.04,44.47,95,36,6.6,RU,1600696915
397,Nouakchott,18.09,-15.98,89.6,62,40,8.05,MR,1600696871
398,Izoplit,56.63,36.22,56.46,74,72,10.31,RU,1600696915
399,Kosh-Agach,50.0,88.67,47.32,52,0,4.25,RU,1600696916
400,Kyzyl-Suu,42.34,78.0,54.7,39,0,6.38,KG,1600696916
401,Perth,-31.93,115.83,54.99,93,75,6.93,AU,1600696848
402,Rio Claro,-22.41,-47.56,79.38,49,33,7.14,BR,1600696916
403,Guerrero Negro,27.98,-114.06,72.07,78,0,6.76,MX,1600696916
404,Heraclea,37.51,34.05,80.28,29,15,7.96,TR,1600696917
405,Bambous Virieux,-20.34,57.76,74.16,64,40,18.34,MU,1600696917
406,Lüderitz,-26.65,15.16,72.52,31,2,30.44,NA,1600696917
407,Luzhou,28.87,105.44,67.59,93,100,6.13,CN,1600696917
408,Truckee,39.33,-120.18,50.97,31,0,1.01,US,1600696918
409,Port Hardy,50.7,-127.42,51.8,100,90,2.24,CA,1600696918
410,Murray Bridge,-35.12,139.27,49.41,86,20,8.01,AU,1600696918
411,Akdepe,42.06,59.38,68.92,32,0,11.41,TM,1600696918
412,Lethem,3.38,-59.8,88.99,58,0,10.85,GY,1600696919
413,Khasan,42.43,130.64,57.81,73,93,4.45,RU,1600696919
414,Aitape,-3.14,142.35,78.46,84,1,3.02,PG,1600696919
415,Huaidian,33.43,115.03,61.47,91,100,6.22,CN,1600696920
416,Evensk,61.95,159.23,36.3,80,0,7.78,RU,1600696920
417,Pitimbu,-7.47,-34.81,80.6,78,75,12.75,BR,1600696920
418,Nizhnyaya Salda,58.08,60.72,40.64,71,97,8.79,RU,1600696920
419,Hambantota,6.12,81.12,77.0,100,75,4.7,LK,1600696921
420,San Quintín,30.48,-115.95,68.63,87,0,9.33,MX,1600696921
421,Kota Kinabalu,5.97,116.07,80.31,88,20,5.82,MY,1600696921
422,Micheweni,-4.97,39.83,79.65,71,22,10.74,TZ,1600696922
423,Orlik,52.52,99.83,42.48,70,22,1.92,RU,1600696922
424,Wahpeton,46.27,-96.61,58.73,87,1,6.93,US,1600696702
425,Talcahuano,-36.72,-73.12,50.0,93,90,4.7,CL,1600696844
426,Māngrol,21.12,70.12,80.46,91,100,10.83,IN,1600696923
427,Calvinia,-31.47,19.78,68.0,20,0,14.43,ZA,1600696923
428,Oxford,51.75,-1.26,70.63,64,0,4.7,GB,1600696923
429,Campechuela,20.23,-77.28,81.27,78,0,5.5,CU,1600696924
430,Riberalta,-10.98,-66.1,78.8,78,75,6.93,BO,1600696924
431,Wodonga,-36.12,146.88,46.62,100,40,2.51,AU,1600696856
432,Limbang,4.75,115.0,77.0,94,75,2.24,MY,1600696924
433,Gambo,4.65,22.26,78.19,93,100,3.33,CF,1600696924
434,Bathsheba,13.22,-59.52,89.6,66,20,9.17,BB,1600696925
435,Gawler,-34.6,138.73,55.24,79,27,14.0,AU,1600696925
436,San Policarpo,12.18,125.51,81.09,85,100,7.43,PH,1600696925
437,Røros,62.57,11.38,59.0,47,100,21.92,NO,1600696926
438,Darlawn,24.02,92.9,70.39,98,99,2.1,IN,1600696926
439,Tarko-Sale,64.92,77.78,59.0,63,98,1.01,RU,1600696926
440,São José de Ribamar,-2.56,-44.05,84.2,70,75,17.22,BR,1600696926
441,Turkmenabat,39.07,63.58,78.8,19,0,11.41,TM,1600696927
442,West Bend,43.43,-88.18,57.11,71,1,5.82,US,1600696876
443,Khuzdar,27.74,66.64,86.81,13,0,3.98,PK,1600696927
444,Acapulco de Juárez,16.86,-99.89,78.8,78,20,4.7,MX,1600696927
445,Knysna,-34.04,23.05,62.6,51,0,9.17,ZA,1600696928
446,Dunedin,-45.87,170.5,48.38,64,0,1.99,NZ,1600696928
447,Kirakira,-10.45,161.92,78.24,83,13,8.41,SB,1600696928
448,Katangli,51.71,143.23,44.01,82,0,5.32,RU,1600696928
449,Marfino,55.7,37.38,57.16,66,75,11.18,RU,1600696928
450,Sarankhola,22.31,89.79,80.55,91,100,7.27,BD,1600696929
451,Bairiki Village,1.33,172.98,82.4,74,20,8.05,KI,1600696926
452,Juba,4.85,31.58,85.77,58,86,3.78,SS,1600696819
453,Klimovo,52.38,32.19,60.6,55,99,6.4,RU,1600696929
454,Puri,19.8,85.85,78.8,100,90,12.75,IN,1600696930
455,Luga,58.74,29.85,61.09,68,97,10.51,RU,1600696930
456,Khovd,48.01,91.64,54.01,42,91,0.65,MN,1600696930
457,Isangel,-19.55,169.27,70.59,83,3,8.25,VU,1600696930
458,Belfast,54.58,-5.93,57.72,76,1,8.05,GB,1600696931
459,Souillac,-20.52,57.52,75.2,64,40,18.34,MU,1600696931
460,Kangaba,11.93,-8.42,87.6,58,88,2.66,ML,1600696931
461,Velsk,61.07,42.1,49.28,75,100,6.04,RU,1600696931
462,Departamento de Maldonado,-34.67,-54.92,48.27,66,75,13.87,UY,1600696917
463,Muroto-misakicho,33.28,134.15,73.65,63,0,16.96,JP,1600696932
464,Broken Hill,-31.95,141.43,60.8,41,0,14.99,AU,1600696932
465,Kiruna,67.86,20.23,46.4,81,50,21.92,SE,1600696932
466,Lábrea,-7.26,-64.8,89.02,57,100,4.14,BR,1600696932
467,Kidal,18.44,1.41,102.72,9,0,9.46,ML,1600696932
468,Todos Santos,23.45,-110.22,81.03,69,1,4.0,MX,1600696933
469,Flinders,-34.58,150.86,67.77,75,100,1.99,AU,1600696933
470,Severnyy,50.68,36.55,64.4,31,41,8.95,RU,1600696933
471,Hirara,24.8,125.28,80.62,81,90,20.65,JP,1600696933
472,Nanyang,32.99,112.53,58.08,93,100,10.38,CN,1600696934
473,Cidreira,-30.18,-50.21,59.52,47,0,8.99,BR,1600696934
474,Belvedere Marittimo,39.62,15.86,86.0,45,5,3.0,IT,1600696934
475,Kumul,42.8,93.45,62.69,49,25,4.16,CN,1600696934
476,Port Moresby,-9.44,147.18,75.67,92,92,7.92,PG,1600696935
477,Antofagasta,-23.65,-70.4,59.0,72,90,11.41,CL,1600696777
478,Ciudad Guayana,8.35,-62.65,84.99,70,56,4.0,VE,1600696734
479,College,64.86,-147.8,33.37,86,75,6.93,US,1600696832
480,Itoman,26.12,127.67,78.42,78,20,17.22,JP,1600696935
481,Sioux Lookout,50.1,-91.92,59.0,72,5,11.41,CA,1600696866
482,Zhangaözen,43.3,52.8,66.74,25,0,6.55,KZ,1600696936
483,Henties Bay,-22.12,14.28,55.99,86,4,4.0,NA,1600696936
484,Sørland,67.67,12.69,48.2,81,75,48.32,NO,1600696936
485,Tura,25.52,90.22,77.11,86,100,6.51,IN,1600696686
486,Severo-Kuril'sk,50.68,156.12,48.83,77,100,4.45,RU,1600696936
487,Puksoozero,62.59,40.61,46.26,86,100,8.39,RU,1600696937
488,Touros,-5.2,-35.46,82.4,65,75,17.22,BR,1600696921
489,Gamba,-2.65,10.0,78.1,70,7,10.63,GA,1600696937
490,Nome,64.5,-165.41,37.67,86,75,5.82,US,1600696937
491,Ferme-Neuve,46.7,-75.45,48.96,58,0,5.55,CA,1600696937
492,Abu Dhabi,24.47,54.37,95.0,56,0,12.75,AE,1600696817
493,Oranjemund,-28.55,16.43,61.59,58,0,25.43,NA,1600696938
494,Bunia,1.57,30.25,75.22,78,100,2.53,CD,1600696938
495,Fuyang,32.9,115.82,61.56,94,100,8.86,CN,1600696938
496,Killybegs,54.63,-8.45,59.0,72,90,8.05,IE,1600696939
497,Buala,-8.14,159.59,80.42,79,16,5.23,SB,1600696939
498,Bollnäs,61.35,16.39,67.93,43,96,14.61,SE,1600696939
499,Yinchuan,38.47,106.27,63.79,60,80,6.08,CN,1600696939
500,Presidencia Roque Sáenz Peña,-26.79,-60.44,65.19,29,71,7.07,AR,1600696939
501,Ariquemes,-9.91,-63.04,90.52,51,80,2.44,BR,1600696940
502,Avera,33.19,-82.53,59.36,72,1,12.75,US,1600696940
503,Ayan,56.45,138.17,50.72,79,93,11.25,RU,1600696940
504,Necochea,-38.55,-58.74,50.0,68,8,8.99,AR,1600696940
505,Mahina,-17.51,-149.49,74.12,69,20,4.7,PF,1600696941
506,Victoria Point,-27.58,153.3,71.53,87,7,5.01,AU,1600696941
507,Naryan-Mar,67.67,53.09,39.49,76,95,9.89,RU,1600696941
508,Port Saint Lucie,27.29,-80.35,80.42,83,75,13.87,US,1600696908
509,Opuwo,-18.06,13.84,97.2,9,0,10.89,NA,1600696941
510,San Rafael del Sur,11.85,-86.44,78.8,88,20,11.25,NI,1600696942
511,Nāhan,30.55,77.3,93.2,59,20,10.29,IN,1600696942
512,Lake Shasta,40.68,-122.37,61.93,66,0,4.81,US,1600696942
513,Poum,-20.23,164.02,71.89,71,0,10.29,NC,1600696942
514,Petra,30.32,35.48,85.33,29,0,8.16,JO,1600696943
515,Ayagoz,47.97,80.44,63.88,29,0,10.89,KZ,1600696943
516,Yalova,40.66,29.28,77.0,57,40,16.11,TR,1600696943
517,Kenai,60.55,-151.26,46.62,87,90,12.75,US,1600696943
518,Daru,-9.08,143.21,77.32,85,100,14.54,PG,1600696943
519,Itarema,-2.92,-39.92,81.77,66,100,17.07,BR,1600696944
520,Portland,45.52,-122.68,54.5,87,75,1.9,US,1600696140
521,Gonaïves,19.45,-72.68,84.79,65,4,0.81,HT,1600696944
522,Port Keats,-14.25,129.55,81.37,78,84,8.46,AU,1600696944
523,Lusambo,-4.97,23.45,83.28,62,100,6.15,CD,1600696944
524,Dakar,14.69,-17.44,78.8,83,75,9.17,SN,1600696941
525,Sayyan,15.17,44.32,73.58,19,47,15.79,YE,1600696945
526,Progreso,21.28,-89.67,79.12,94,40,5.82,MX,1600696945
527,Maiduguri,11.85,13.16,86.72,53,56,9.33,NG,1600696945
528,Coromandel,-18.47,-47.2,85.98,28,11,11.95,BR,1600696946
529,Russell,32.35,-85.2,60.73,67,1,5.82,US,1600696946
530,Herning,56.14,8.97,64.81,63,73,8.05,DK,1600696946
531,Grand Gaube,-20.01,57.66,73.0,68,21,8.99,MU,1600696946
532,Riyadh,24.69,46.72,104.0,7,0,25.28,SA,1600696946
533,Clyde River,70.47,-68.59,30.2,92,90,13.87,CA,1600696947
534,Campbell River,50.02,-125.24,54.14,100,75,0.51,CA,1600696897
535,Kutum,14.2,24.67,92.75,18,0,13.42,SD,1600696947
536,San Julián,21.02,-102.17,57.4,83,32,2.75,MX,1600696948
537,Alice Springs,-23.7,133.88,71.94,24,40,1.12,AU,1600696852
538,Aripuanã,-9.17,-60.63,94.1,44,35,3.22,BR,1600696948
539,Cap Malheureux,-19.98,57.61,73.0,68,17,8.99,MU,1600696872
540,Okhotsk,59.38,143.3,46.09,75,0,7.4,RU,1600696948
541,Biloela,-24.42,150.5,65.8,93,8,6.91,AU,1600696948
542,Mucurapo,10.67,-61.53,88.84,66,40,5.82,TT,1600696949
543,Auki,-8.77,160.7,77.43,85,71,6.4,SB,1600696949
544,Gorontalo,0.54,123.06,76.93,86,47,2.98,ID,1600696949
545,Bayir,37.27,28.22,85.1,42,20,19.46,TR,1600696949
546,Shimanovsk,52.0,127.7,50.05,70,100,2.84,RU,1600696950
547,Clarence Town,-32.58,151.78,66.96,88,90,19.46,AU,1600696950
548,Delta,5.5,6.0,77.47,90,100,3.94,NG,1600696815
549,Beloha,-25.17,45.05,78.53,47,0,12.1,MG,1600696950
550,Curillo,1.03,-75.92,84.76,56,69,0.09,CO,1600696950
551,Mhlume,-26.03,31.85,68.0,64,75,21.92,SZ,1600696951
552,Quryq,43.2,51.65,67.87,38,0,11.41,KZ,1600696951
553,Praia,14.92,-23.51,86.0,70,40,12.75,CV,1600696804
554,Carayaó,-25.18,-56.4,71.1,34,1,6.85,PY,1600696951
555,Fonte Boa,-2.5,-66.27,90.73,52,15,3.62,BR,1600696951
556,Hailar,49.2,119.7,44.47,93,71,2.53,CN,1600696952
557,Bhāgalpur,25.25,87.0,80.87,88,100,10.22,IN,1600696952
558,São José da Coroa Grande,-8.9,-35.15,78.85,76,96,11.14,BR,1600696952
559,Jinxiang,22.86,115.7,78.85,83,98,12.24,CN,1600696952
560,La Maná,-0.93,-79.22,48.2,87,75,2.24,EC,1600696953
561,Viedma,-40.81,-63.0,57.0,39,12,8.01,AR,1600696828
562,Howard Springs,-12.5,131.05,80.67,83,75,10.29,AU,1600696953
563,Gazojak,41.19,61.4,67.78,24,0,14.2,TM,1600696953
564,Orán,-23.13,-64.33,70.0,25,0,1.99,AR,1600696953
565,Touba,8.28,-7.68,85.51,61,60,3.24,CI,1600696747
