,City Name,Latitude,Longitude,Temperature (Farenheit),Humidity %,Cloudiness %,Wind Speed (MPH),Country,Date
0,Dikson,73.51,80.55,51.03,89,48,7.49,RU,1597727822
1,Lebu,-37.62,-73.65,48.87,87,100,7.67,CL,1597727231
2,Homer,59.64,-151.55,59.14,72,40,13.87,US,1597727593
3,Yellowknife,62.46,-114.35,58.06,93,90,2.24,CA,1597727793
4,Fortuna,40.6,-124.16,57.72,92,100,4.9,US,1597727267
5,Hermanus,-34.42,19.23,48.99,76,89,10.0,ZA,1597727823
6,Bredasdorp,-34.53,20.04,46.4,81,92,12.75,ZA,1597727823
7,Seymchan,62.88,152.43,48.78,77,100,1.52,RU,1597727823
8,Piaçabuçu,-10.41,-36.43,72.12,86,13,9.01,BR,1597727540
9,Cape Town,-33.93,18.42,49.41,71,75,12.75,ZA,1597727692
10,Batemans Bay,-35.72,150.18,57.43,72,0,5.01,AU,1597727823
11,Ciudad Bolivar,8.12,-63.55,78.87,85,100,5.48,VE,1597727824
12,Hong Kong,22.29,114.16,84.29,74,63,13.0,HK,1597727597
13,Jutaí,-5.18,-68.9,73.94,91,16,2.71,BR,1597727824
14,Port Alfred,-33.59,26.89,48.07,69,33,28.72,ZA,1597727824
15,Atuona,-9.8,-139.03,78.93,77,2,20.0,PF,1597727824
16,Matamoros,25.53,-103.25,82.45,39,40,11.41,MX,1597727824
17,Upernavik,72.79,-56.15,46.29,57,94,3.47,GL,1597727824
18,Vaini,-21.2,-175.2,73.4,88,75,9.17,TO,1597727825
19,Luanda,-8.84,13.23,68.0,94,40,2.24,AO,1597727376
20,Fairbanks,64.84,-147.72,66.16,35,1,3.36,US,1597727533
21,Dunedin,-45.87,170.5,46.99,78,100,1.99,NZ,1597727231
22,Jiwani,25.05,61.74,83.12,79,75,9.73,PK,1597727825
23,Mataura,-46.19,168.86,47.64,68,100,2.77,NZ,1597727825
24,Codrington,-38.27,141.97,54.39,81,92,19.39,AU,1597727826
25,Puerto Ayora,-0.74,-90.35,66.99,94,86,1.01,EC,1597727826
26,Bluff,-46.6,168.33,47.01,68,100,5.37,NZ,1597727826
27,Mazagão,-0.12,-51.29,80.6,100,20,5.82,BR,1597727826
28,Castro,-24.79,-50.01,58.69,96,95,4.54,BR,1597727826
29,Qaqortoq,60.72,-46.03,53.6,58,42,8.05,GL,1597727826
30,Saint-Philippe,-21.36,55.77,70.32,57,20,3.36,RE,1597727826
31,Neryungri,56.67,124.65,53.51,56,70,11.16,RU,1597727826
32,Saint Paul Harbor,57.79,-152.41,62.6,67,1,8.05,US,1597727827
33,Ushuaia,-54.8,-68.3,31.03,96,97,4.03,AR,1597727572
34,Aklavik,68.22,-135.01,57.2,62,20,2.24,CA,1597727827
35,Oranjestad,12.52,-70.03,84.2,79,40,9.17,AW,1597727786
36,Tiruchchendur,8.48,78.12,91.4,55,20,6.93,IN,1597727827
37,George Town,5.41,100.34,89.29,52,40,9.17,MY,1597727764
38,Visby,57.64,18.3,64.81,93,83,9.17,SE,1597727828
39,Port Elizabeth,-33.92,25.57,44.6,75,75,25.28,ZA,1597727230
40,Vieques,18.43,-65.83,81.66,74,20,8.05,PR,1597727828
41,Vrede,-27.43,29.17,45.09,57,99,6.98,ZA,1597727828
42,Albany,42.6,-73.97,64.65,89,99,5.75,US,1597727731
43,Nikolskoye,59.7,30.79,57.65,87,57,1.5,RU,1597727829
44,Bambous Virieux,-20.34,57.76,74.64,64,40,18.34,MU,1597727829
45,Tiznit Province,29.58,-9.5,65.57,46,0,1.12,MA,1597727268
46,Tubualá,9.52,-79.03,78.8,94,40,4.7,PA,1597727829
47,Austin,30.27,-97.74,79.03,54,1,7.63,US,1597726953
48,Kaitangata,-46.28,169.85,48.99,72,100,15.01,NZ,1597727830
49,Hilo,19.73,-155.09,70.77,61,20,6.93,US,1597727618
50,Rikitea,-23.12,-134.97,72.1,76,23,9.86,PF,1597727830
51,Minot,48.23,-101.3,67.62,82,1,4.7,US,1597727830
52,Nadiād,22.7,72.87,79.75,100,90,6.93,IN,1597727590
53,Sungai Penuh,-2.08,101.38,73.99,75,97,0.87,ID,1597727831
54,Skibbereen,51.55,-9.27,59.0,100,90,9.17,IE,1597727831
55,Rudnogorsk,57.26,103.75,71.37,35,100,5.75,RU,1597727831
56,Clyde River,70.47,-68.59,44.6,93,90,13.87,CA,1597727831
57,Evensk,61.95,159.23,57.51,48,75,8.16,RU,1597727570
58,Ndioum,16.51,-14.65,84.2,66,70,2.24,SN,1597727831
59,Arraial do Cabo,-22.97,-42.03,70.11,87,75,6.93,BR,1597727832
60,Saint George,37.1,-113.58,93.2,7,1,4.7,US,1597727666
61,Pevek,69.7,170.31,41.34,79,97,13.35,RU,1597727235
62,Eskil,38.4,33.41,64.69,44,0,5.75,TR,1597727832
63,Mossamedes,-15.2,12.15,59.58,81,6,5.06,AO,1597727832
64,Christchurch,-43.53,172.63,50.36,81,100,16.11,NZ,1597727706
65,Belaya Gora,68.53,146.42,53.82,47,98,6.17,RU,1597727832
66,Marawi,8.0,124.29,84.0,76,99,8.01,PH,1597727267
67,The Valley,18.22,-63.06,82.71,74,20,13.87,AI,1597727832
68,Severo-Kuril'sk,50.68,156.12,55.92,80,95,5.84,RU,1597727833
69,Kavaratti,10.57,72.64,84.2,79,20,5.82,IN,1597727250
70,Sur,22.57,59.53,94.35,47,36,1.21,OM,1597727833
71,Bengkulu,-3.8,102.27,87.21,61,82,6.22,ID,1597727833
72,Souillac,-20.52,57.52,75.2,64,40,18.34,MU,1597727833
73,Khatanga,71.97,102.5,67.1,64,78,8.93,RU,1597727834
74,Ponta do Sol,32.67,-17.1,67.64,73,20,5.82,PT,1597727834
75,Butaritari,3.07,172.79,82.49,64,0,8.25,KI,1597727834
76,Emerald,-23.53,148.17,88.34,10,0,11.41,AU,1597727834
77,Chokurdakh,70.63,147.92,46.53,64,99,9.75,RU,1597727834
78,Pīpār,26.39,73.54,86.05,73,86,11.45,IN,1597727834
79,Tuktoyaktuk,69.45,-133.04,50.0,93,75,10.29,CA,1597727835
80,Cidreira,-30.18,-50.21,60.08,86,0,14.52,BR,1597727835
81,Jamestown,42.1,-79.24,59.23,100,75,2.77,US,1597727835
82,Ribeira Grande,38.52,-28.7,73.63,90,99,11.56,PT,1597727835
83,Busselton,-33.65,115.33,56.82,64,66,5.99,AU,1597727835
84,Hamilton,39.18,-84.53,70.09,83,1,2.84,US,1597727836
85,Ararat,39.83,44.7,69.31,40,20,5.82,AM,1597727836
86,Mana,5.66,-53.78,77.9,84,63,10.13,GF,1597727530
87,Coyhaique,-45.58,-72.07,37.4,55,20,5.82,CL,1597727556
88,‘Ewa Beach,21.32,-158.01,81.93,51,1,5.82,US,1597727777
89,Dingle,11.0,122.67,84.72,79,99,8.68,PH,1597727241
90,Norman Wells,65.28,-126.83,53.6,76,75,4.7,CA,1597727836
91,Klaksvík,62.23,-6.59,44.6,87,81,9.53,FO,1597727836
92,New Norfolk,-42.78,147.06,52.63,80,90,1.99,AU,1597727837
93,Cabo San Lucas,22.89,-109.91,81.0,88,28,1.01,MX,1597727837
94,Kalmunai,7.42,81.82,88.18,56,5,4.97,LK,1597727570
95,Opuwo,-18.06,13.84,47.08,45,0,6.53,NA,1597727837
96,Havre-St-Pierre,50.23,-63.6,55.4,100,1,5.82,CA,1597727837
97,Laas,46.62,10.7,56.75,82,75,5.82,IT,1597727837
98,Palamós,41.85,3.13,68.56,80,99,9.64,ES,1597727838
99,Grande Prairie,55.17,-118.8,64.4,77,40,4.7,CA,1597727838
100,Berlevåg,70.86,29.09,46.4,87,75,11.41,NO,1597727242
101,Carnarvon,-24.87,113.63,69.8,52,53,13.87,AU,1597727838
102,Nushki,29.55,66.02,96.84,29,1,10.22,PK,1597727838
103,Vardø,70.37,31.11,46.4,87,75,5.82,NO,1597727838
104,Ha Tinh,18.33,105.9,85.69,64,100,3.04,VN,1597727839
105,Ilulissat,69.22,-51.1,44.6,68,87,1.12,GL,1597727839
106,Itoman,26.12,127.67,90.14,75,75,12.75,JP,1597727839
107,Padang,-0.95,100.35,84.94,61,68,3.36,ID,1597727839
108,Mezhdurechensk,53.69,88.06,79.92,42,49,5.19,RU,1597727839
109,Samarai,-10.62,150.67,76.8,59,12,9.4,PG,1597727839
110,Chatrā,24.22,84.87,89.6,75,40,2.13,IN,1597727840
111,Ketchikan,55.34,-131.65,57.2,93,90,5.82,US,1597727840
112,Forbes,-33.38,148.02,63.0,54,59,1.01,AU,1597727840
113,Palmer,42.16,-72.33,66.99,94,90,4.38,US,1597727259
114,Portland,45.52,-122.68,77.95,51,1,3.04,US,1597727429
115,Punta Arenas,-53.15,-70.92,32.0,89,23,13.87,CL,1597727840
116,Canala,-21.53,165.95,77.0,53,42,11.41,NC,1597727840
117,Berea,41.37,-81.85,63.52,88,20,2.75,US,1597727784
118,Cap Malheureux,-19.98,57.61,73.99,70,2,11.99,MU,1597727841
119,Ancud,-41.87,-73.82,37.62,93,75,6.93,CL,1597727253
120,Labuhan,-6.88,112.21,86.97,56,24,5.37,ID,1597727260
121,Ho Chi Minh City,10.75,106.67,89.6,59,75,8.05,VN,1597727792
122,Tiksi,71.69,128.87,46.06,90,100,5.14,RU,1597727841
123,Barrow,71.29,-156.79,46.4,87,20,14.99,US,1597727841
124,Elko,41.0,-115.5,79.32,20,1,5.37,US,1597727841
125,Beidao,34.57,105.89,70.63,58,100,1.54,CN,1597727842
126,Puerto del Rosario,28.5,-13.86,71.6,78,20,9.17,ES,1597727842
127,Necochea,-38.55,-58.74,42.01,75,0,5.01,AR,1597727842
128,Kahului,20.89,-156.47,75.27,54,75,16.11,US,1597727611
129,Adrar,20.5,-10.07,93.63,35,0,15.52,MR,1597727572
130,Lebedinyy,58.52,125.52,50.95,59,87,6.73,RU,1597727842
131,Vao,-22.67,167.48,69.33,74,0,16.51,NC,1597727843
132,Kalabo,-14.97,22.68,55.15,35,0,3.02,ZM,1597727843
133,Hasaki,35.73,140.83,94.5,55,40,12.75,JP,1597727843
134,Changji,44.02,87.32,91.4,19,53,8.95,CN,1597727843
135,Prescott,34.54,-112.47,73.8,50,48,9.17,US,1597727663
136,Tres Arroyos,-38.37,-60.28,44.73,59,4,12.44,AR,1597727523
137,Kostomuksha,64.57,30.58,47.79,75,53,4.99,RU,1597727844
138,Hobyo,5.35,48.53,79.14,64,35,22.5,SO,1597727844
139,Saldanha,-33.01,17.94,48.2,81,61,8.05,ZA,1597727844
140,Aitape,-3.14,142.35,85.1,71,12,8.66,PG,1597727844
141,Husavik,66.04,-17.34,41.0,100,75,5.68,IS,1597727844
142,Zhezkazgan,47.8,67.71,66.2,42,40,17.9,KZ,1597727845
143,Cayenne,4.93,-52.33,77.0,94,68,2.24,GF,1597727545
144,Churhat,24.43,81.67,85.86,78,63,8.63,IN,1597727845
145,Prince Rupert,54.32,-130.32,57.2,100,90,4.7,CA,1597727632
146,Kruisfontein,-34.0,24.73,44.01,77,78,11.01,ZA,1597727845
147,Argelia,2.26,-77.25,66.36,77,100,0.31,CO,1597727845
148,Wilmington,34.23,-77.94,73.76,88,75,4.21,US,1597727668
149,Urengoy,65.97,78.37,64.69,67,79,7.0,RU,1597727544
150,Los Llanos de Aridane,28.66,-17.92,71.6,78,4,11.41,ES,1597727846
151,Beringovskiy,63.05,179.32,53.74,78,99,11.59,RU,1597727846
152,Abu Dhabi,24.47,54.37,92.43,71,0,4.7,AE,1597727398
153,Rawson,-43.3,-65.1,43.72,58,43,23.82,AR,1597727579
154,Hobart,-42.88,147.33,54.81,66,75,1.12,AU,1597727559
155,Messaria,36.4,25.45,75.02,57,0,13.87,GR,1597727847
156,Baghdad,33.34,44.4,84.2,30,0,11.41,IQ,1597727815
157,Vestmannaeyjar,63.44,-20.27,53.2,91,75,3.8,IS,1597727847
158,Tasiilaq,65.61,-37.64,39.2,100,10,4.21,GL,1597727847
159,Tsaitien,30.58,114.03,93.2,56,20,4.47,CN,1597727847
160,Sechura,-5.56,-80.82,61.77,83,53,12.75,PE,1597727597
161,Chimbote,-9.09,-78.58,59.92,84,65,8.77,PE,1597727847
162,Lagoa,39.05,-27.98,71.04,89,99,4.7,PT,1597727848
163,Locri,38.24,16.26,80.53,74,0,11.41,IT,1597727848
164,Alyangula,-13.85,136.42,86.0,37,1,8.05,AU,1597727848
165,Burē,10.7,37.07,59.68,95,100,0.96,ET,1597727848
166,Ubari,26.59,12.78,77.72,29,0,6.13,LY,1597727848
167,Kaputa,-8.47,29.66,66.49,40,61,2.19,ZM,1597727848
168,Revda,56.8,59.93,53.6,93,90,2.24,RU,1597727849
169,Alofi,-19.06,-169.92,75.2,78,99,13.87,NU,1597727450
170,Kristinestad,62.27,21.38,54.54,70,0,7.05,FI,1597727849
171,Hambantota,6.12,81.12,87.8,70,40,12.75,LK,1597727849
172,Provideniya,64.38,-173.3,55.4,66,100,13.42,RU,1597727849
173,Saint-Pierre,-21.34,55.48,71.2,57,20,3.36,RE,1597727850
174,Arlit,18.74,7.39,93.24,22,44,6.02,NE,1597727850
175,Guerrero Negro,27.98,-114.06,74.12,74,0,14.0,MX,1597727256
176,Thompson,55.74,-97.86,53.6,93,75,3.85,CA,1597727850
177,Rafaela,-31.25,-61.49,50.58,34,0,3.0,AR,1597727850
178,Ouro Preto do Oeste,-10.75,-62.22,77.2,32,51,2.86,BR,1597727850
179,Taltal,-25.4,-70.48,49.44,76,30,0.45,CL,1597727851
180,Miranda,3.25,-76.23,71.6,83,75,5.82,CO,1597727851
181,Mar del Plata,-38.0,-57.56,47.14,70,0,12.75,AR,1597727851
182,Muzhi,65.37,64.67,57.6,73,100,10.56,RU,1597727851
183,Log,49.48,43.86,71.46,62,0,7.11,RU,1597727851
184,Hirara,24.8,125.28,88.54,74,20,13.87,JP,1597727584
185,Iqaluit,63.75,-68.51,42.78,87,75,6.93,CA,1597727852
186,Rawa Mazowiecka,51.76,20.25,61.66,10,17,1.5,PL,1597727852
187,Katsuura,35.13,140.3,91.6,70,75,12.75,JP,1597727852
188,Owen Sound,44.57,-80.94,57.94,96,0,6.85,CA,1597727852
189,Oranjemund,-28.55,16.43,52.86,82,32,12.19,NA,1597727555
190,Sehwan,26.43,67.86,98.76,47,43,5.91,PK,1597727852
191,Samsun Province,41.25,36.33,69.8,73,40,2.24,TR,1597727853
192,Oodweyne,9.41,45.06,73.99,58,49,22.03,SO,1597727853
193,Honiara,-9.43,159.95,89.6,62,20,6.93,SB,1597727853
194,Karasburg,-28.02,18.75,43.39,70,88,14.5,NA,1597727853
195,Saskylakh,71.92,114.08,51.73,64,93,11.23,RU,1597727853
196,São Félix do Xingu,-6.64,-51.99,71.78,40,0,0.81,BR,1597727265
197,Avarua,-21.21,-159.78,69.8,77,99,6.93,CK,1597727853
198,Inhambane,-23.86,35.38,71.22,75,99,11.43,MZ,1597727251
199,Stromness,58.97,-3.3,57.2,100,90,5.82,GB,1597727853
200,Kupang,-10.17,123.58,85.48,51,0,16.73,ID,1597727672
201,Poum,-20.23,164.02,70.11,72,90,18.79,NC,1597727854
202,Monterey,36.25,-121.25,79.57,27,0,6.96,US,1597727707
203,Leningradskiy,69.38,178.42,46.17,58,74,6.26,RU,1597727266
204,Monrovia,6.3,-10.8,75.2,94,75,8.63,LR,1597727586
205,Porto-Novo,6.5,2.6,75.2,94,20,8.05,BJ,1597727854
206,Moose Factory,51.26,-80.61,53.6,100,90,3.36,CA,1597727533
207,Fărcaș,44.6,23.75,65.62,72,71,9.17,RO,1597727855
208,Buala,-8.14,159.59,83.44,69,79,2.13,SB,1597727855
209,Kikwit,-5.04,18.82,78.19,59,69,3.78,CD,1597727855
210,Harper,4.38,-7.72,74.55,85,88,7.02,LR,1597727855
211,East London,-33.02,27.91,48.2,76,20,9.17,ZA,1597727855
212,Tromsø,69.65,18.96,46.4,87,75,20.8,NO,1597727855
213,Prince George,53.92,-122.75,63.01,87,1,3.36,CA,1597727856
214,Hithadhoo,-0.6,73.08,83.73,75,26,10.67,MV,1597727856
215,Yenagoa,4.92,6.26,73.99,92,84,2.48,NG,1597727856
216,Kangaatsiaq,68.31,-53.46,47.19,67,80,3.62,GL,1597727856
217,Nuuk,64.18,-51.72,51.4,57,0,10.29,GL,1597727856
218,Torbay,47.67,-52.73,60.4,82,75,4.7,CA,1597727857
219,Sitka,57.05,-135.33,57.2,82,75,11.41,US,1597727258
220,North Bend,43.41,-124.22,60.39,93,90,8.05,US,1597727857
221,Asău,46.43,26.4,66.0,78,0,3.74,RO,1597727857
222,Anadyr,64.75,177.48,59.0,41,0,11.18,RU,1597727567
223,Salalah,17.02,54.09,77.0,100,90,3.36,OM,1597727835
224,Chirilagua,13.22,-88.14,73.24,99,100,3.36,SV,1597727857
225,Qaanaaq,77.48,-69.36,42.37,62,100,8.34,GL,1597727857
226,Sungai Raya,0.7,108.9,89.01,60,91,5.68,ID,1597727858
227,Cabedelo,-6.98,-34.83,71.6,94,20,2.24,BR,1597727858
228,Roxana,10.28,-83.75,66.18,100,40,2.24,CR,1597727858
229,Mae Hong Son,19.3,97.97,77.0,94,40,4.7,TH,1597727858
230,Governador Valadares,-18.85,-41.95,71.31,83,52,4.21,BR,1597727858
231,Port-Gentil,-0.72,8.78,77.0,88,90,10.67,GA,1597727858
232,Kimbe,-5.55,150.14,87.93,54,2,6.24,PG,1597727859
233,Port Blair,11.67,92.75,85.51,69,100,14.09,IN,1597727859
234,Makīnsk,52.63,70.42,60.96,63,56,15.9,KZ,1597727859
235,Hergla,36.03,10.51,74.91,69,3,1.12,TN,1597727859
236,San Fernando,15.03,120.69,87.08,79,75,6.93,PH,1597727859
237,Arman',59.7,150.17,56.59,75,100,4.72,RU,1597727859
238,Srandakan,-7.94,110.25,83.19,66,49,17.45,ID,1597727859
239,Yarmouth,41.71,-70.23,63.66,93,90,8.52,US,1597727860
240,Kenora,49.82,-94.43,62.6,63,20,5.82,CA,1597727860
241,Acapulco de Juárez,16.86,-99.89,77.56,84,100,8.66,MX,1597727615
242,Esperance,-33.87,121.9,57.2,71,90,23.04,AU,1597727860
243,Rabaul,-4.2,152.17,83.53,74,11,13.85,PG,1597727860
244,Nago,26.59,127.98,90.52,66,75,6.93,JP,1597727830
245,Uchiza,-8.46,-76.46,71.96,79,73,1.99,PE,1597727860
246,Ocean Springs,30.41,-88.83,77.65,88,1,3.36,US,1597727860
247,Kapaa,22.08,-159.32,76.44,69,40,16.11,US,1597727861
248,Mitsamiouli,-11.38,43.28,75.2,69,20,6.93,KM,1597727861
249,Mahébourg,-20.41,57.7,75.2,64,40,18.34,MU,1597727861
250,Kothāpet,19.33,79.48,78.04,88,100,7.85,IN,1597727861
251,Kirkuk,35.47,44.39,91.53,15,0,7.31,IQ,1597727543
252,Pueblo,38.25,-104.61,73.22,31,1,9.17,US,1597727637
253,Talara,-4.58,-81.27,62.64,83,89,16.46,PE,1597727861
254,Mahibadhoo,3.78,72.97,83.19,66,41,2.71,MV,1597727585
255,Tazovsky,67.47,78.7,55.71,95,79,9.13,RU,1597727862
256,Taguatinga,-12.39,-46.57,75.76,34,8,6.44,BR,1597727862
257,Nanortalik,60.14,-45.24,47.23,73,79,2.01,GL,1597727862
258,Karatuzskoye,53.61,92.87,75.99,61,99,4.07,RU,1597727862
259,Alto Araguaia,-17.31,-53.22,71.85,37,35,2.19,BR,1597727863
260,Węgrów,52.4,22.02,63.99,87,13,4.0,PL,1597727863
261,Narsaq,60.92,-46.05,53.6,58,41,8.05,GL,1597727863
262,Geraldton,-28.77,114.6,66.2,48,40,12.75,AU,1597727863
263,Maningrida,-12.07,134.27,85.96,29,0,11.34,AU,1597727594
264,Matagami,49.75,-77.63,53.6,93,90,8.3,CA,1597727263
265,Marzuq,14.4,46.47,85.87,41,59,6.44,YE,1597727535
266,Soure,-0.72,-48.52,79.43,85,48,9.69,BR,1597727863
267,Dalbandin,28.89,64.41,95.58,26,5,2.48,PK,1597727863
268,Kiryat Gat,31.61,34.76,75.24,43,0,4.0,IL,1597727570
269,Cherskiy,68.75,161.3,43.32,90,100,13.47,RU,1597727864
270,Mahuta,-10.87,39.45,67.8,82,32,1.39,TZ,1597727864
271,Pedro II,-4.42,-41.46,69.49,59,12,5.06,BR,1597727864
272,Disna,55.57,28.2,56.01,80,97,5.17,BY,1597727864
273,Kodino,63.72,39.64,50.32,78,71,6.76,RU,1597727864
274,São João da Barra,-21.64,-41.05,71.73,90,25,10.13,BR,1597727457
275,Muros,42.78,-9.06,68.0,93,100,1.99,ES,1597727551
276,Iwanai,42.97,140.51,78.6,50,83,5.79,JP,1597727865
277,Baoro,5.67,15.97,66.65,96,89,3.33,CF,1597727865
278,Egvekinot,66.32,-179.17,47.07,75,92,6.8,RU,1597727590
279,Belmonte,-15.86,-38.88,69.8,94,75,3.36,BR,1597727865
280,Borovskoy,53.8,64.15,52.54,90,99,15.05,KZ,1597727865
281,Palora,-1.7,-77.93,64.24,93,74,3.58,EC,1597727765
282,Netivot,31.42,34.59,74.84,43,0,3.0,IL,1597727865
283,Flinders,-34.58,150.86,69.17,49,10,8.99,AU,1597727865
284,Itarema,-2.92,-39.92,77.54,76,1,18.1,BR,1597727866
285,Longyearbyen,78.22,15.64,42.8,70,40,24.16,SJ,1597727866
286,Clonakilty,51.62,-8.87,59.0,100,90,6.93,IE,1597727866
287,Kabalo,-6.05,26.92,72.03,33,35,1.86,CD,1597727866
288,Qasigiannguit,68.82,-51.19,44.6,70,78,1.12,GL,1597727866
289,Budišov nad Budišovkou,49.8,17.63,63.54,88,98,4.76,CZ,1597727867
290,Kavieng,-2.57,150.8,85.1,70,4,10.78,PG,1597727867
291,Sørland,67.67,12.69,51.8,87,75,2.24,NO,1597727867
292,Yüksekova,37.57,44.29,64.4,63,20,4.7,TR,1597727867
293,La Ronge,55.1,-105.28,62.6,88,5,3.38,CA,1597727867
294,Pobé,6.98,2.66,72.18,91,63,4.56,BJ,1597727867
295,Kununurra,-15.77,128.73,96.8,16,0,6.93,AU,1597727603
296,Barddhamān,23.25,87.85,92.98,59,40,2.21,IN,1597727867
297,Bemidji,47.47,-94.88,53.58,100,1,3.36,US,1597727868
298,Haines Junction,60.75,-137.51,47.28,81,36,3.85,CA,1597727572
299,St. George's,12.06,-61.75,82.4,88,75,16.11,GD,1597727592
300,Lüderitz,-26.65,15.16,52.75,75,1,14.38,NA,1597727868
301,Mount Gambier,-37.83,140.77,51.8,87,40,12.75,AU,1597727868
302,Verāval,20.9,70.37,83.48,82,77,17.63,IN,1597727868
303,Namatanai,-3.67,152.43,83.55,69,21,9.95,PG,1597727868
304,Sharan,54.82,54.0,50.25,89,100,14.97,RU,1597727869
305,São Filipe,14.9,-24.5,78.24,84,24,0.67,CV,1597727869
306,Grand Gaube,-20.01,57.66,73.99,70,2,11.99,MU,1597727869
307,Yar-Sale,66.83,70.83,57.45,83,90,14.0,RU,1597727869
308,Meridian,43.61,-116.39,76.64,41,84,8.05,US,1597727869
309,Peterhead,57.51,-1.8,57.09,100,90,2.24,GB,1597727659
310,Turukhansk,65.82,87.98,71.83,39,50,11.61,RU,1597727870
311,Biltine,14.53,20.92,79.25,71,99,10.27,TD,1597727546
312,Lázaro Cárdenas,17.96,-102.2,76.68,87,100,5.86,MX,1597727870
313,Keighley,53.87,-1.91,57.09,100,40,6.93,GB,1597727870
314,Manokwari,-0.87,134.08,83.32,74,89,8.5,ID,1597727870
315,Kariba,-16.52,28.8,60.78,58,2,6.38,ZW,1597727870
316,Sumbe,-11.21,13.84,69.49,87,94,2.53,AO,1597727871
317,Shīeli,44.17,66.75,75.65,28,0,14.2,KZ,1597727871
318,Maple Creek,49.92,-109.48,72.66,30,10,1.25,CA,1597727871
319,Maceió,-9.67,-35.74,69.8,94,40,10.02,BR,1597727860
320,Kalaiya,27.03,85.0,91.58,61,12,10.16,NP,1597727871
321,Faya,18.39,42.45,68.88,55,40,3.36,SA,1597727871
322,Yeppoon,-23.13,150.73,82.4,28,0,8.05,AU,1597727871
323,Faanui,-16.48,-151.75,78.44,77,5,13.0,PF,1597727872
324,Estación Coahuila,32.19,-115.0,97.14,39,1,8.05,MX,1597727872
325,Santa Rosa,14.31,121.11,89.19,55,97,5.82,PH,1597727822
326,Lompoc,34.64,-120.46,61.92,88,1,5.82,US,1597727418
327,São José da Coroa Grande,-8.9,-35.15,73.72,82,39,9.64,BR,1597727872
328,Ekibastuz,51.67,75.37,68.43,47,96,4.81,KZ,1597727764
329,De Aar,-30.65,24.01,30.72,93,20,10.25,ZA,1597727872
330,Deyang,31.13,104.38,77.0,10,100,8.93,CN,1597727872
331,Nikolayevsk-on-Amur,53.14,140.73,56.62,91,100,5.39,RU,1597727873
332,Coquimbo,-29.95,-71.34,51.8,76,20,3.36,CL,1597727690
333,Östersund,63.18,14.64,50.0,100,75,2.01,SE,1597727873
334,Sioni,41.99,45.02,68.0,60,20,1.99,GE,1597727873
335,Ostrovnoy,68.05,39.51,46.69,80,3,14.32,RU,1597727873
336,Zavitinsk,50.12,129.45,65.62,79,85,14.97,RU,1597727873
337,Yulara,-25.24,130.99,71.6,14,0,16.11,AU,1597727873
338,Wagar,16.15,36.2,80.92,62,100,9.86,SD,1597727874
339,Kathu,7.92,98.33,87.15,74,20,9.17,TH,1597727874
340,Vanimo,-2.67,141.3,85.46,68,79,8.68,PG,1597727874
341,Curup,-3.47,102.53,85.33,53,42,3.31,ID,1597727874
342,Nanyuki,0.02,37.07,59.54,77,85,7.47,KE,1597727819
343,Bilma,18.69,12.92,88.45,25,0,5.84,NE,1597727874
344,Margherita,27.28,95.68,78.8,100,90,3.36,IN,1597727875
345,Champerico,14.3,-91.92,77.09,93,100,3.83,GT,1597727552
346,Vila Franca do Campo,37.72,-25.43,73.4,94,75,18.34,PT,1597727875
347,Shwebo,22.57,95.7,74.25,91,100,13.69,MM,1597727875
348,Buchanan,5.88,-10.05,75.2,94,75,7.65,LR,1597727875
349,Pisco,-13.7,-76.22,60.44,82,22,4.7,PE,1597727876
350,Bethel,41.37,-73.41,66.29,93,75,3.36,US,1597727761
351,Colesberg,-30.72,25.1,29.75,94,23,11.16,ZA,1597727876
352,Constitución,-35.33,-72.42,46.45,82,0,7.61,CL,1597727876
353,Baykit,61.67,96.37,72.03,29,40,7.92,RU,1597727876
354,Srednekolymsk,67.45,153.68,48.65,60,98,11.52,RU,1597727575
355,Żurrieq,35.83,14.47,78.87,88,20,12.75,MT,1597727877
356,Ban Nahin,18.24,104.21,77.65,89,100,3.02,LA,1597727877
357,Chik,54.99,82.43,77.0,47,93,6.71,RU,1597727877
358,College,64.86,-147.8,66.97,37,20,5.82,US,1597727575
359,Bud,39.45,-86.18,69.58,77,75,4.25,US,1597727877
360,Pangnirtung,66.15,-65.71,55.67,70,69,2.39,CA,1597727877
361,Deputatsky,69.3,139.9,50.45,49,98,7.52,RU,1597727523
362,Lahaina,20.88,-156.68,78.75,61,40,14.99,US,1597727705
363,Sorong,-0.88,131.25,84.87,68,100,12.88,ID,1597727878
364,King City,36.21,-121.13,80.98,27,0,6.78,US,1597727878
365,Karakol,42.49,78.39,62.8,67,98,4.68,KG,1597727878
366,Lac-au-Saumon,48.42,-67.35,60.8,87,90,4.7,CA,1597727878
367,Zhoucheng,35.91,116.31,91.31,66,0,10.71,CN,1597727878
368,Tahoua,14.89,5.27,78.8,83,87,6.93,NE,1597727879
369,Elizabeth City,36.29,-76.25,75.15,88,75,4.7,US,1597727879
370,Port Lincoln,-34.73,135.87,57.54,66,70,24.65,AU,1597727719
371,Yuanping,38.72,112.76,65.35,77,100,9.37,CN,1597727879
372,Auki,-8.77,160.7,83.1,75,76,2.8,SB,1597727879
373,Sept-Îles,50.2,-66.38,62.83,93,90,6.93,CA,1597727583
374,Quatre Cocos,-20.21,57.76,74.57,64,40,18.34,MU,1597727671
375,Kamina,-8.74,24.99,63.5,31,71,1.14,CD,1597727880
376,Isangel,-19.55,169.27,75.2,88,75,9.17,VU,1597727880
377,Portsmouth,50.8,-1.09,63.39,91,64,1.99,GB,1597727729
378,Katobu,-4.94,122.53,88.56,47,39,3.87,ID,1597727880
379,Nichinan,31.6,131.37,91.4,70,20,8.05,JP,1597727546
380,Buritizeiro,-17.35,-44.96,67.8,74,0,4.52,BR,1597727881
381,Øksfjord,70.24,22.35,48.07,87,90,2.24,NO,1597727881
382,Tacna,-18.01,-70.25,51.96,89,100,5.91,PE,1597727881
383,Bonga,7.28,36.23,62.37,91,100,0.69,ET,1597727881
384,Solnechnyy,50.72,136.63,56.57,95,100,7.11,RU,1597727881
385,Embonas,36.23,27.86,77.0,78,0,12.75,GR,1597727882
386,Thio,-21.62,166.22,77.0,53,39,11.41,NC,1597727882
387,Aurillac,44.92,2.45,58.73,93,90,5.82,FR,1597727882
388,Hay River,60.82,-115.8,60.8,87,75,12.75,CA,1597727882
389,Carrollton,32.95,-96.89,81.9,65,1,5.82,US,1597727650
390,Santa Marta,11.24,-74.2,75.0,88,100,7.11,CO,1597727795
391,Shubarshi,48.59,57.19,70.65,45,31,19.75,KZ,1597727883
392,Hoquiam,46.98,-123.89,61.81,77,1,6.93,US,1597727454
393,Dunmore Town,25.5,-76.65,84.83,67,34,8.03,BS,1597727883
394,Atlantic City,39.36,-74.42,69.93,88,1,6.93,US,1597727715
395,Karratha,-20.74,116.85,77.11,18,0,2.04,AU,1597727715
396,Cafarnaum,-11.69,-41.47,63.14,84,32,9.64,BR,1597727883
397,Charkhi Dādri,28.6,76.27,94.14,53,8,3.98,IN,1597727883
398,Samfya,-11.36,29.56,58.62,67,71,4.68,ZM,1597727883
399,Tura,25.52,90.22,80.01,85,86,4.97,IN,1597727883
400,South Valley,35.01,-106.68,79.27,26,20,11.41,US,1597727884
401,Stornoway,58.21,-6.39,56.7,93,40,4.7,GB,1597727828
402,Mogadishu,2.04,45.34,76.89,80,100,13.06,SO,1597727884
403,San Quintín,30.48,-115.95,74.71,69,0,5.21,MX,1597727884
404,Nabire,-3.37,135.48,83.79,76,27,4.68,ID,1597727588
405,Cilegon,-6.02,106.05,85.24,70,40,3.36,ID,1597727884
406,Pierre,44.37,-100.35,74.3,56,1,13.87,US,1597727884
407,Burnie,-41.07,145.92,54.46,68,62,10.0,AU,1597727885
408,Airai,-8.93,125.41,74.35,49,1,5.77,TL,1597727885
409,Ponta Delgada,37.73,-25.67,71.6,100,75,17.22,PT,1597727563
410,Eureka,40.8,-124.16,57.52,100,100,5.19,US,1597727580
411,Mananjary,-21.22,48.33,68.52,79,1,3.89,MG,1597727885
412,Vetluga,57.86,45.78,54.39,62,20,6.73,RU,1597727885
413,Wuwei,37.93,102.64,83.66,14,0,7.47,CN,1597727886
414,Viadana,44.93,10.53,67.68,88,40,2.24,IT,1597727886
415,Khasan,42.43,130.64,77.72,79,98,5.68,RU,1597727886
416,Parkes,-33.13,148.18,63.0,54,65,1.01,AU,1597727695
417,Egyek,47.63,20.9,66.2,93,75,5.82,HU,1597727886
418,Brae,60.4,-1.35,57.2,100,48,17.22,GB,1597727557
419,Andenes,69.31,16.12,50.0,93,75,16.11,NO,1597727604
420,Thinadhoo,0.53,72.93,84.83,67,70,8.43,MV,1597727887
421,Lodja,-3.48,23.43,71.74,78,31,2.17,CD,1597727887
422,Chapleau,47.84,-83.4,49.5,96,11,4.29,CA,1597727887
423,Sabha,27.04,14.43,79.48,29,0,8.08,LY,1597727887
424,Kankan,10.39,-9.31,71.4,97,93,3.87,GN,1597727888
425,Lakhdenpokh'ya,61.52,30.2,57.0,65,39,1.23,RU,1597727888
426,Talnakh,69.49,88.4,68.0,45,0,13.42,RU,1597727888
427,Coahuayana Viejo,18.73,-103.68,75.6,87,100,3.51,MX,1597727888
428,Mandalgovi,45.76,106.27,66.63,45,4,6.69,MN,1597727888
429,Vila,42.03,-8.16,64.99,95,100,3.0,PT,1597727888
430,Lokosovo,61.13,74.82,61.75,84,97,7.52,RU,1597727888
431,Morro Bay,35.37,-120.85,74.62,86,6,5.82,US,1597727510
432,Khor,47.89,134.95,65.1,95,100,9.95,RU,1597727889
433,Lukovetskiy,64.3,41.92,48.2,93,20,4.47,RU,1597727889
434,Bonavista,48.65,-53.11,60.01,78,87,1.99,CA,1597727597
435,Henties Bay,-22.12,14.28,46.99,89,0,6.29,NA,1597727889
436,Manaure,11.78,-72.44,82.6,77,62,9.31,CO,1597727889
437,Gbadolite,4.28,21.02,71.28,97,91,0.98,CD,1597727890
438,Kerchevskiy,59.95,56.29,50.2,97,100,7.58,RU,1597727890
439,Richards Bay,-28.78,32.04,64.38,66,55,7.63,ZA,1597727890
440,Ibrā’,22.69,58.53,94.37,36,19,2.1,OM,1597727890
441,Vaijāpur,19.92,74.73,78.26,79,97,10.33,IN,1597727890
442,Tessalit,20.2,1.01,86.52,45,6,2.35,ML,1597727890
443,Turaif,31.67,38.66,71.6,37,0,4.7,SA,1597727890
444,Maracaju,-21.61,-55.17,67.21,97,94,9.98,BR,1597727891
445,Poso,-1.4,120.75,89.73,37,1,3.69,ID,1597727891
446,Mehamn,71.04,27.85,46.4,87,75,11.41,NO,1597727568
447,Muravlenko,63.79,74.52,60.87,61,100,13.98,RU,1597727891
448,Belyy Yar,53.6,91.39,69.8,73,44,8.95,RU,1597727558
449,Comodoro Rivadavia,-45.87,-67.5,44.6,42,85,14.99,AR,1597727548
450,Taoudenni,22.68,-3.98,97.56,9,0,9.01,ML,1597727892
451,Tilichiki,60.47,166.1,59.2,42,11,11.05,RU,1597727892
452,Isla Aguada,18.78,-91.47,82.65,77,18,7.38,MX,1597727892
453,Gizo Government Station,-8.1,156.84,80.87,83,97,16.42,SB,1597727892
454,Jacareacanga,-6.22,-57.75,72.99,43,0,0.67,BR,1597727892
455,Vallenar,-28.57,-70.76,49.46,79,0,1.9,CL,1597727892
456,Huntsville,34.73,-86.59,70.72,78,1,4.7,US,1597727611
457,Peachland,49.77,-119.74,75.51,47,1,2.24,CA,1597727893
458,Wilkes-Barre,41.25,-75.88,61.83,88,90,3.36,US,1597727893
459,Roald,62.58,6.13,59.27,93,20,6.93,NO,1597727893
460,Bonthe,7.53,-12.51,75.34,88,100,6.67,SL,1597727893
461,Pandan,14.05,124.17,86.0,68,83,7.99,PH,1597727893
462,Jaleshwar,26.65,85.8,92.95,58,1,11.54,NP,1597727893
463,Camalú,30.85,-116.07,70.0,59,4,3.42,MX,1597727893
464,Ouésso,1.61,16.05,69.75,96,42,1.41,CG,1597727894
465,Paita,-5.09,-81.11,60.78,87,63,11.01,PE,1597727894
466,Tacoronte,28.48,-16.41,68.59,63,21,6.93,ES,1597727894
467,Severnyy,50.68,36.55,66.2,68,57,4.47,RU,1597727604
468,Eenhana,-17.47,16.33,50.0,34,0,4.7,NA,1597727894
469,Quetta,30.2,67.01,86.36,29,10,4.45,PK,1597727665
470,Masindi,1.67,31.71,65.57,94,99,1.61,UG,1597727894
471,Chui,-33.7,-53.46,47.25,89,0,7.02,UY,1597727894
472,Hearst,49.68,-83.67,49.62,85,84,5.64,CA,1597727895
473,Vostok,46.49,135.88,59.18,99,100,5.06,RU,1597727895
474,Caxias,38.7,-9.28,70.66,83,75,4.7,PT,1597727895
475,San Patricio,19.22,-104.7,78.73,80,100,7.74,MX,1597727895
476,Tlaltenango,19.17,-98.33,55.99,81,98,3.89,MX,1597727895
477,Lichuan,30.3,108.85,75.33,82,95,3.18,CN,1597727895
478,Praia,14.92,-23.51,78.8,88,5,2.24,CV,1597727577
479,Nishihara,26.18,127.76,90.14,66,40,12.75,JP,1597727895
480,Chippewa Falls,44.94,-91.39,57.72,87,1,4.23,US,1597727402
481,Maiduguri,11.85,13.16,77.32,78,100,10.96,NG,1597727896
482,Cody,44.53,-109.06,78.48,27,1,8.05,US,1597727896
483,Cardston,49.2,-113.3,71.58,39,40,25.28,CA,1597727769
484,Leshukonskoye,64.9,45.76,47.77,85,20,6.51,RU,1597727574
485,Sinnamary,5.38,-52.95,77.52,84,100,8.52,GF,1597727896
486,Houston,29.76,-95.36,84.49,51,1,9.17,US,1597727473
487,Hāgere Selam,6.48,38.52,52.34,100,88,1.19,ET,1597727897
488,Budureasa,46.67,22.5,69.89,77,20,4.7,RO,1597727897
489,Vrangel',42.73,133.08,74.62,86,98,5.61,RU,1597727897
490,Owando,-0.48,15.9,71.08,96,9,3.71,CG,1597727897
491,Umm Kaddadah,13.6,26.69,77.83,70,94,4.7,SD,1597727897
492,Lorengau,-2.02,147.27,82.22,81,23,9.8,PG,1597727897
493,Ternate,0.8,127.4,81.5,78,40,13.6,ID,1597727603
494,Chapais,49.78,-74.85,53.6,100,90,2.24,CA,1597727861
495,Iralaya,15.0,-83.23,80.58,83,91,5.01,HN,1597727550
496,Acarí,-15.43,-74.62,57.63,68,25,3.8,PE,1597727898
497,Artsyz,45.99,29.42,69.46,44,0,2.39,UA,1597727898
498,Raudeberg,61.99,5.14,62.01,92,5,1.63,NO,1597727898
499,Mahon,39.89,4.27,73.4,94,20,2.24,ES,1597727898
500,Santa Maria,-29.68,-53.81,47.73,83,0,5.61,BR,1597727539
501,Siparia,10.13,-61.5,76.6,88,40,4.7,TT,1597727899
502,Udachny,66.42,112.4,68.0,24,17,6.71,RU,1597727899
503,Edmundston,47.37,-68.33,61.43,77,75,3.36,CA,1597727899
504,Alamor,-4.02,-80.02,57.85,85,77,1.74,EC,1597727899
505,Maragogi,-9.01,-35.22,73.31,84,30,9.37,BR,1597727899
506,Sibolga,1.74,98.78,86.97,58,8,4.83,ID,1597727900
507,Bahía Honda,22.9,-83.16,79.93,83,19,4.76,CU,1597727900
508,Kumul,42.8,93.45,90.27,11,0,9.91,CN,1597727900
509,Tamandaré,-8.76,-35.1,73.71,81,52,9.19,BR,1597727900
510,Camopi,3.17,-52.32,71.08,97,55,2.04,GF,1597727900
511,Bilibino,68.05,166.44,39.96,85,100,7.63,RU,1597727525
512,Aripuanã,-9.17,-60.63,72.73,30,21,0.81,BR,1597727900
513,Nova Serrana,-19.88,-44.98,63.61,79,5,4.81,BR,1597727900
514,Teya,60.38,92.63,73.29,31,34,8.43,RU,1597727901
515,Rocha,-34.48,-54.33,44.22,87,0,7.11,UY,1597727786
516,Lukulu,-14.37,23.24,55.54,37,0,5.32,ZM,1597727901
517,Kaeo,-35.1,173.78,57.99,3,100,10.0,NZ,1597727588
518,Shenjiamen,29.96,122.3,84.15,80,2,11.27,CN,1597727901
519,Mineros,-17.12,-63.23,60.8,100,40,3.36,BO,1597727901
520,Te Anau,-45.42,167.72,47.34,70,100,0.63,NZ,1597727562
521,Doka,13.52,35.77,70.14,93,100,15.95,SD,1597727902
522,Port Hedland,-20.32,118.57,82.4,15,0,11.41,AU,1597727575
523,Buta,2.79,24.73,71.62,91,91,1.14,CD,1597727902
524,Lufilufi,-13.87,-171.6,82.2,83,75,13.87,WS,1597727902
525,Phalombe,-15.81,35.65,64.29,81,26,2.71,MW,1597727902
526,Mahina,-17.51,-149.49,80.29,69,20,3.36,PF,1597727902
527,Bridlington,54.08,-0.19,57.34,100,90,7.0,GB,1597727903
528,Fethiye,36.62,29.12,78.8,57,0,1.12,TR,1597727903
529,Broome,42.25,-75.83,59.5,93,90,2.15,US,1597727903
530,Usinsk,65.99,57.53,50.22,89,100,5.1,RU,1597727903
531,Sindor,62.86,51.89,49.06,80,100,10.18,RU,1597727903
532,Kondopoga,62.21,34.26,46.4,87,2,6.71,RU,1597727903
533,Nome,64.5,-165.41,65.7,52,1,11.41,US,1597727447
534,Cairns,-16.92,145.77,79.41,54,21,8.05,AU,1597727884
535,Agadez,19.75,10.25,87.37,13,76,11.34,NE,1597727904
536,Oudtshoorn,-33.59,22.2,41.0,93,90,17.22,ZA,1597727904
537,Broken Hill,-31.95,141.43,64.4,27,0,17.22,AU,1597727904
538,Honningsvåg,70.98,25.97,46.4,81,75,14.99,NO,1597727904
539,Qandala,11.47,49.87,91.06,46,92,5.64,SO,1597727904
540,Malinta,12.3,123.56,85.1,74,86,4.54,PH,1597727904
541,Ambilobe,-13.2,49.05,72.72,60,39,1.45,MG,1597727905
542,Fauske,67.26,15.39,50.0,91,70,2.66,NO,1597727905
543,Fort Nelson,58.81,-122.7,59.0,100,75,5.82,CA,1597727753
544,El Tocuyo,9.79,-69.79,77.0,78,100,4.7,VE,1597727905
545,Toowoomba,-27.55,151.97,67.44,37,26,11.41,AU,1597727905
546,Avera,33.19,-82.53,72.93,83,75,5.82,US,1597727905
547,Boyolangu,-8.12,111.89,81.05,67,85,13.04,ID,1597727905
548,Cuamba,-14.8,36.54,67.5,69,0,2.17,MZ,1597727906
549,Sambava,-14.27,50.17,72.73,81,99,14.05,MG,1597727906
550,Kenai,60.55,-151.26,58.82,82,1,9.17,US,1597727906
551,Cabra,37.47,-4.44,66.99,63,0,2.53,ES,1597727906
552,Turmalina,-17.29,-42.73,62.19,95,0,2.44,BR,1597727907
553,Pangai,-19.8,-174.35,77.0,73,75,16.11,TO,1597727907
554,La Sarre,48.8,-79.2,52.65,97,78,7.76,CA,1597727907
555,Phan Thiet,10.93,108.1,89.26,64,96,9.19,VN,1597727907
556,Beipiao,41.79,120.78,85.1,66,37,3.78,CN,1597727907
